{
  "type": "FeatureCollection",
  "features": [
    {
      "id": "1",
      "type": "Feature",
      "properties": {
        "title": "Maldives",
        "description": "Known for its stunning overwater bungalows, clear blue waters, and romantic sunsets",
        "link": "https://www.theknot.com/tk-media/images/6695e24a-8684-44b2-9fb7-f7255efec7ae"
      },
      "geometry": {
        "type": "Point",
        "coordinates": [
          73.5434,
          3.2028
        ]
      }
    },
    {
      "id": "2",
      "type": "Feature",
      "properties": {
        "title": "Santorini, Greece",
        "description": "Famous for its picturesque white-washed buildings, cliffside views, and romantic ambiance",
        "link": "https://theplunge.com/wp-content/uploads/2020/02/Santorini-Honeymoon.jpg"
      },
      "geometry": {
        "type": "Point",
        "coordinates": [
          25.4284,
          36.3932
        ]
      }
    },
    {
      "id": "3",
      "type": "Feature",
      "properties": {
        "title": "Paris, France",
        "description": "The City of Love with its iconic landmarks, charming streets, and world-class cuisine",
        "link": "https://www.telegraph.co.uk/content/dam/luxury/2016/04/22/Four-Seasons-George-V-LUXURY.jpghttps://www.telegraph.co.uk/content/dam/luxury/2016/04/22/Four-Seasons-George-V-LUXURY.jpg"
      },
      "geometry": {
        "type": "Point",
        "coordinates": [
          2.3522,
          48.8566
        ]
      }
    },
    {
      "id": "4",
      "type": "Feature",
      "properties": {
        "title": "Hawaii, USA",
        "description": "Diverse landscapes, beautiful beaches, and opportunities for adventure",
        "link": "https://www.abercrombiekent.co.uk/-/media/abercrombieandkent/images/itineraries/destinations/north-america/usa/hawaii/highlights-of-hawaii/day-5-7-highlights-hawaii-maui.jpg?w=1920&h=940"
      },
      "geometry": {
        "type": "Point",
        "coordinates": [
          -157.8583,
          21.3069
        ]
      }
    },
    {
      "id": "5",
      "type": "Feature",
      "properties": {
        "title": "Bali, Indonesia",
        "description": "Lush landscapes, stunning beaches, rich culture, and luxurious resorts",
        "link": "https://theplunge.com/wp-content/uploads/2017/09/ultimate_honeymoon_guide_bali_header.png"
      },
      "geometry": {
        "type": "Point",
        "coordinates": [
          115.1889,
          -8.4095
        ]
      }
    },
    {
      "id": "6",
      "type": "Feature",
      "properties": {
        "title": "Amalfi Coast, Italy",
        "description": "Dramatic coastline, colorful villages, and delicious cuisine",
        "link": "https://thehoneymoonedit.com/wp-content/uploads/2023/04/Amalfi-shutterstock_759048703.jpg.webp"
      },
      "geometry": {
        "type": "Point",
        "coordinates": [
          14.6119,
          40.6340
        ]
      }
    },
    {
      "id": "7",
      "type": "Feature",
      "properties": {
        "title": "Seychelles",
        "description": "Pristine beaches, crystal-clear waters, and luxurious resorts",
        "link": "https://cdn0.hitched.co.uk/article/3422/original/1280/jpg/42243-Seychelles-honeymoon-guide-beach-b9c34e0.jpeg"
      },
      "geometry": {
        "type": "Point",
        "coordinates": [
          55.4915,
          -4.6796
        ]
      }
    },
    {
      "id": "8",
      "type": "Feature",
      "properties": {
        "title": "Tahiti and Bora Bora, French Polynesia",
        "description": "Breathtaking scenery, overwater bungalows, and vibrant marine life",
        "link": "https://www.holidaysforcouples.travel/wp-content/uploads/2023/09/Bora-Bora-French-Polynesia-with-crystal-clear-waters-and-overwater-bungalows-dotting-the-shoreline-scaled-1.jpg"
      },
      "geometry": {
        "type": "Point",
        "coordinates": [
          -149.4068,
          -17.6797
        ]
      }
    },
    {
      "id": "9",
      "type": "Feature",
      "properties": {
        "title": "Kyoto, Japan",
        "description": "Stunning temples, serene gardens, and traditional ryokan accommodations",
        "link": "https://thehoneymoonedit.com/wp-content/uploads/2022/10/Himeji-Japan-at-Himeji-Castle-shutterstock_776445706-728x546.jpg"
      },
      "geometry": {
        "type": "Point",
        "coordinates": [
          135.7681,
          35.0116
        ]
      }
    },
    {
      "id": "10",
      "type": "Feature",
      "properties": {
        "title": "Costa Rica",
        "description": "Lush rainforests, pristine beaches, and diverse wildlife",
        "link": "https://timbuktutravel.imgix.net/2022/10/costa-rica-honeymoon-nayara-tented-camp.png?auto=compress%2Cformat&fit=scale&h=600&ixlib=php-1.1.0&q=50&w=900&wpsize=large"
      },
      "geometry": {
        "type": "Point",
        "coordinates": [
          -83.7534,
          9.7489
        ]
      }
    },
    {
      "id": "11",
      "type": "Feature",
      "properties": {
        "title": "Santorini, Greece",
        "description": "Famous for its picturesque white-washed buildings, cliffside views, and romantic ambiance",
        "link": "https://theplunge.com/wp-content/uploads/2020/02/Santorini-Honeymoon.jpg"
      },
      "geometry": {
        "type": "Point",
        "coordinates": [
          25.4284,
          36.3932
        ]
      }
    },
    {
      "id": "12",
      "type": "Feature",
      "properties": {
        "title": "Banff, Canada",
        "description": "Stunning mountain scenery, crystal-clear lakes, and outdoor adventures",
        "link": "https://cdn0.weddingwire.ca/article-vendor-o/5473/original/1280/jpg/fairmont-banff-springs-willow-stream-spa-outdoor-hot-tub-winter_50_5473.jpeg"
      },
      "geometry": {
        "type": "Point",
        "coordinates": [
          -115.5624,
          51.1784
        ]
      }
    },
    {
      "id": "13",
      "type": "Feature",
      "properties": {
        "title": "Queenstown, New Zealand",
        "description": "Adventurous activities, breathtaking landscapes, and charming alpine villages",
        "link": "https://encrypted-tbn0.gstatic.com/images?q=tbn:ANd9GcRrKbmCHaBtyQZ66XWIxNJ53w5-sifPeR7xLg&usqp=CAU"
      },
      "geometry": {
        "type": "Point",
        "coordinates": [
          168.661,
          -45.032192
        ]
      }
    },
    {
      "id": "14",
      "type": "Feature",
      "properties": {
        "title": "Cape Town, South Africa",
        "description": "Beautiful beaches, stunning landscapes, and vibrant culture",
        "link": "https://www.hlimg.com/images/stories/738X538/6_1535711797m.jpg"
      },
      "geometry": {
        "type": "Point",
        "coordinates": [
          18.4241,
          -33.9249
        ]
      }
    },
    {
      "id": "15",
      "type": "Feature",
      "properties": {
        "title": "Venice, Italy",
        "description": "Romantic canals, historic architecture, and delicious cuisine",
        "link": "https://www.arabiaweddings.com/sites/default/files/styles/max980/public/articles/2019/08/venice_italy_grand_canal.jpg?itok=dIVTjRMU"
      },
      "geometry": {
        "type": "Point",
        "coordinates": [
          12.3155,
          45.4408
        ]
      }
    },
    {
      "id": "16",
      "type": "Feature",
      "properties": {
        "title": "Fiji",
        "description": "Idyllic beaches, crystal-clear waters, and friendly locals",
        "link": "https://www.downunderendeavours.com/wp-content/uploads/2017/09/PP-likuliku-900x600-aerial-through-palm-trees-015-pano-signature.jpg"
      },
      "geometry": {
        "type": "Point",
        "coordinates": [
          178.0650,
          -17.7134
        ]
      }
    },
    {
      "id": "17",
      "type": "Feature",
      "properties": {
        "title": "Sedona, USA",
        "description": "Red rock formations, spiritual energy, and luxurious spas",
        "link": "https://encrypted-tbn0.gstatic.com/images?q=tbn:ANd9GcTrp8Xg_zpWMEQnRGosR9BDHmMOho-qRjnfJw&usqp=CAU"
      },
      "geometry": {
        "type": "Point",
        "coordinates": [
          -111.7890,
          34.8697
        ]
      }
    },
    {
      "id": "18",
      "type": "Feature",
      "properties": {
        "title": "Dubrovnik, Croatia",
        "description": "Medieval architecture, crystal-clear waters, and charming streets",
        "link": "https://unforgettablecroatia.com/wp-content/uploads/2021/07/Dubrovnik-900x550-1.jpg"
      },
      "geometry": {
        "type": "Point",
        "coordinates": [
          18.1100,
          42.6507
        ]
      }
    },
    {
      "id": "19",
      "type": "Feature",
      "properties": {
        "title": "Maui, Hawaii",
        "description": "Stunning beaches, lush landscapes, and scenic drives",
        "link": "https://www.fourseasons.com/alt/img-opt/~70.1530.0,0000-0,0000-1600,0000-900,0000/publish/content/dam/fourseasons/images/web/MAU/MAU_676_aspect16x9.jpg"
      },
      "geometry": {
        "type": "Point",
        "coordinates": [
          -156.5047,
          20.7984
        ]
      }
    },
    {
      "id": "20",
      "type": "Feature",
      "properties": {
        "title": "Dubai, United Arab Emirates",
        "description": "Luxurious accommodations, futuristic architecture, and desert adventures",
        "link": "https://media-cdn.tripadvisor.com/media/photo-s/1b/90/18/f0/the-ritz-carlton-dubai.jpg"
      },
      "geometry": {
        "type": "Point",
        "coordinates": [
          55.2708,
          25.2048
        ]
      }
    },
    {
      "id": "21",
      "type": "Feature",
      "properties": {
        "title": "Rotorua, New Zealand",
        "description": "Geothermal wonders, Maori culture, and adventurous activities",
        "link": "https://nzpocketguide.com/wp-content/uploads/2020/09/Lake-Spa-Polynesian-Spa-CREDIT-Polynesian-Spa-Feature-Mandatory-Credit-Destination-Rotorua-2-1024x683.jpg"
      },
      "geometry": {
        "type": "Point",
        "coordinates": [
          176.2509,
          -38.1368
        ]
      }
    },
    {
      "id": "22",
      "type": "Feature",
      "properties": {
        "title": "Hallstatt, Austria",
        "description": "Quaint village nestled by a pristine lake, surrounded by Alps",
        "link": "https://cdn.vietlongtravel.com/wp-content/uploads/2015/01/ECOLODGE-RESORT.jpg?strip=all&lossy=1&resize=940%2C627&ssl=1"
      },
      "geometry": {
        "type": "Point",
        "coordinates": [
          13.6509,
          47.5622
        ]
      }
    },
    {
      "id": "23",
      "type": "Feature",
      "properties": {
        "title": "Sapa, Vietnam",
        "description": "Breathtaking mountain landscapes, vibrant hill-tribe culture, and trekking adventures",
        "link": "https://theplunge.com/wp-content/uploads/2020/02/Santorini-Honeymoon.jpg"
      },
      "geometry": {
        "type": "Point",
        "coordinates": [
          103.8448,
          22.3365
        ]
      }
    },
    {
      "id": "24",
      "type": "Feature",
      "properties": {
        "title": "Iceland",
        "description": "Spectacular natural wonders including waterfalls, glaciers, and geysers",
        "link": "https://theplunge.com/wp-content/uploads/2018/10/Iceland-header-image.jpg"
      },
      "geometry": {
        "type": "Point",
        "coordinates": [
          -18.6200,
          64.9631
        ]
      }
    },
    {
      "id": "25",
      "type": "Feature",
      "properties": {
        "title": "Portofino, Italy",
        "description": "Charming fishing village with colorful buildings, scenic harbor, and Italian Riviera charm",
        "link": "https://www.theknot.com/tk-media/images/1541e75b-58b6-4bca-9195-ed20c59f5036"
      },
      "geometry": {
        "type": "Point",
        "coordinates": [
          9.2067,
          44.3083
        ]
      }
    },
    {
      "id": "26",
      "type": "Feature",
      "properties": {
        "title": "Cappadocia, Turkey",
        "description": "Surreal landscape of fairy chimneys, ancient cave dwellings, and hot air balloon rides",
        "link": "https://thehoneymoonedit.com/wp-content/uploads/2022/12/Cappadocia-Central-AnatoliaTurkey-shutterstock_2048861867-728x546.jpg.webp"
      },
      "geometry": {
        "type": "Point",
        "coordinates": [
          34.8357,
          38.6431
        ]
      }
    },
    {
      "id": "27",
      "type": "Feature",
      "properties": {
        "title": "Zanzibar, Tanzania",
        "description": "Exotic blend of historic Stone Town, pristine beaches, and spice plantations",
        "link": "https://www.i-escape.com/blog/wp-content/uploads/2016/03/Our-Tanzania-honeymoon-tips.jpg"
      },
      "geometry": {
        "type": "Point",
        "coordinates": [
          39.2026,
          -6.1659
        ]
      }
    },
    {
      "id": "28",
      "type": "Feature",
      "properties": {
        "title": "Patagonia, Chile",
        "description": "Untamed wilderness with glaciers, fjords, and breathtaking landscapes",
        "link": "https://honeymoons.com/wp-content/uploads/2020/08/ecocamp-patagonia-900x500.jpg"
      },
      "geometry": {
        "type": "Point",
        "coordinates": [
          -71.0833,
          -51.6784
        ]
      }
    },
    {
      "id": "29",
      "type": "Feature",
      "properties": {
        "title": "Lofoten Islands, Norway",
        "description": "Scenic archipelago with dramatic mountains, picturesque fishing villages, and Northern Lights",
        "link": "https://res.cloudinary.com/gofjords-com/images/w_2560,h_1374,c_scale/f_webp,q_auto:eco/v1633343854/Blog%20Content/Lofoten/Visit%20Lofoten%20in%20the%20winter%20time/Reine-winter-time-Lofoten-Islands-Mumemories/Reine-winter-time-Lofoten-Islands-Mumemories.jpg?_i=AA"
      },
      "geometry": {
        "type": "Point",
        "coordinates": [
          13.1858,
          68.3436
        ]
      }
    }
  ]
}